{"type":"FeatureCollection", "features":[
{"type":"Feature","geometry":{"type":"Point","coordinates":[120.53796715800279,13.259003499999913,0]},"properties":{"OID_":0,"Name":"Apis"}},
{"type":"Feature","geometry":{"type":"Point","coordinates":[120.53544641700289,13.2540546079999,0]},"properties":{"OID_":0,"Name":"Tikian"}},
{"type":"Feature","geometry":{"type":"Point","coordinates":[120.52469340700291,13.268045755999893,0]},"properties":{"OID_":0,"Name":"Bugtong-bato"}},
{"type":"Feature","geometry":{"type":"Point","coordinates":[120.52130369000295,13.268600767999901,0]},"properties":{"OID_":0,"Name":"Igsuso"}},
{"type":"Feature","geometry":{"type":"Point","coordinates":[120.49934972900313,13.274150821999854,0]},"properties":{"OID_":0,"Name":"Mahabang Buhangin"}},
{"type":"Feature","geometry":{"type":"Point","coordinates":[120.48316145400325,13.292773409999871,0]},"properties":{"OID_":0,"Name":"Binarera"}},
{"type":"Feature","geometry":{"type":"Point","coordinates":[120.48842026700315,13.308743297999849,0]},"properties":{"OID_":0,"Name":"Maslud"}},
{"type":"Feature","geometry":{"type":"Point","coordinates":[120.4875649180032,13.321259500999865,0]},"properties":{"OID_":0,"Name":"Tinangra"}},
{"type":"Feature","geometry":{"type":"Point","coordinates":[120.503911591003,13.322739206999874,0]},"properties":{"OID_":0,"Name":"Apnikan"}},
{"type":"Feature","geometry":{"type":"Point","coordinates":[120.49485122600309,13.3330352399999,0]},"properties":{"OID_":0,"Name":"Mamara"}},
{"type":"Feature","geometry":{"type":"Point","coordinates":[120.48008853300325,13.341234760999884,0]},"properties":{"OID_":0,"Name":"Absukot"}},
{"type":"Feature","geometry":{"type":"Point","coordinates":[120.46795524700333,13.371348656999864,0]},"properties":{"OID_":0,"Name":"Tambo"}},
{"type":"Feature","geometry":{"type":"Point","coordinates":[120.48398512400313,13.393939314999889,0]},"properties":{"OID_":0,"Name":"Natao"}},
{"type":"Feature","geometry":{"type":"Point","coordinates":[120.47444956500327,13.398531153999885,0]},"properties":{"OID_":0,"Name":"Proper"}},
{"type":"Feature","geometry":{"type":"Point","coordinates":[120.49350484300308,13.425063486999871,0]},"properties":{"OID_":0,"Name":"Anduyanan"}},
{"type":"Feature","geometry":{"type":"Point","coordinates":[120.4660465510033,13.415780584999858,0]},"properties":{"OID_":0,"Name":"Bungahan"}},
{"type":"Feature","geometry":{"type":"Point","coordinates":[120.46419329500334,13.41914712299988,0]},"properties":{"OID_":0,"Name":"Amihan"}},
{"type":"Feature","geometry":{"type":"Point","coordinates":[120.4730002230033,13.389016087999872,0]},"properties":{"OID_":0,"Name":"Mariil"}},
{"type":"Feature","geometry":{"type":"Point","coordinates":[120.46302115000327,13.437211604999879,0]},"properties":{"OID_":0,"Name":"San Pablo"}},
{"type":"Feature","geometry":{"type":"Point","coordinates":[120.45015923300336,13.437735415999864,0]},"properties":{"OID_":0,"Name":"Maduron"}},
{"type":"Feature","geometry":{"type":"Point","coordinates":[120.4436953400035,13.444994561999826,0]},"properties":{"OID_":0,"Name":"Agdilaw"}},
{"type":"Feature","geometry":{"type":"Point","coordinates":[120.4302486060036,13.442353377999845,0]},"properties":{"OID_":0,"Name":"Ulasan"}},
{"type":"Feature","geometry":{"type":"Point","coordinates":[120.3709602380042,13.41875808599976,0]},"properties":{"OID_":0,"Name":"Hinugasan"}},
{"type":"Feature","geometry":{"type":"Point","coordinates":[120.41088445200386,13.420491413999793,0]},"properties":{"OID_":0,"Name":"Gayamat"}},
{"type":"Feature","geometry":{"type":"Point","coordinates":[120.40454853200386,13.415876882999834,0]},"properties":{"OID_":0,"Name":"Pula"}},
{"type":"Feature","geometry":{"type":"Point","coordinates":[120.38746530900403,13.406385615999776,0]},"properties":{"OID_":0,"Name":"Pamutusin"}},
{"type":"Feature","geometry":{"type":"Point","coordinates":[120.3878969430041,13.405985001999776,0]},"properties":{"OID_":0,"Name":"Bungo"}},
{"type":"Feature","geometry":{"type":"Point","coordinates":[120.38943340400407,13.401909489999788,0]},"properties":{"OID_":0,"Name":"Binaybayan"}},
{"type":"Feature","geometry":{"type":"Point","coordinates":[120.35789636400442,13.38421988999978,0]},"properties":{"OID_":0,"Name":"Ignonok"}},
{"type":"Feature","geometry":{"type":"Point","coordinates":[120.30690805100491,13.449039443999729,0]},"properties":{"OID_":0,"Name":"Calangigan"}},
{"type":"Feature","geometry":{"type":"Point","coordinates":[120.31440027600478,13.468773034999712,0]},"properties":{"OID_":0,"Name":"Binuangan"}},
{"type":"Feature","geometry":{"type":"Point","coordinates":[120.32209049900469,13.482705725999754,0]},"properties":{"OID_":0,"Name":"Aglimasan"}},
{"type":"Feature","geometry":{"type":"Point","coordinates":[120.33812037500445,13.493487792999748,0]},"properties":{"OID_":0,"Name":"Agbakong"}},
{"type":"Feature","geometry":{"type":"Point","coordinates":[120.37776739200399,13.519131751999762,0]},"properties":{"OID_":0,"Name":"Itbu"}},
{"type":"Feature","geometry":{"type":"Point","coordinates":[120.41294758500374,13.528110335999822,0]},"properties":{"OID_":0,"Name":"Pinagbayanan"}},
{"type":"Feature","geometry":{"type":"Point","coordinates":[120.44773178400341,13.519254958999815,0]},"properties":{"OID_":0,"Name":"Agbalite"}},
{"type":"Feature","geometry":{"type":"Point","coordinates":[120.56047947300256,13.507380537999925,0]},"properties":{"OID_":0,"Name":"Inyaman"}},
{"type":"Feature","geometry":{"type":"Point","coordinates":[120.55829358000254,13.49892485099989,0]},"properties":{"OID_":0,"Name":"Kalumpit"}},
{"type":"Feature","geometry":{"type":"Point","coordinates":[120.58911782900236,13.498801631999916,0]},"properties":{"OID_":0,"Name":"Agsigang"}},
{"type":"Feature","geometry":{"type":"Point","coordinates":[120.5249983230028,13.50416155899991,0]},"properties":{"OID_":0,"Name":"Sabang"}},
{"type":"Feature","geometry":{"type":"Point","coordinates":[120.45265004100335,13.515666512999843,0]},"properties":{"OID_":0,"Name":"Kalansan"}},
{"type":"Feature","geometry":{"type":"Point","coordinates":[120.48005289400317,13.503930530999858,0]},"properties":{"OID_":0,"Name":"Purao"}},
{"type":"Feature","geometry":{"type":"Point","coordinates":[120.48486999000313,13.50455800999986,0]},"properties":{"OID_":0,"Name":"Jaman"}},
{"type":"Feature","geometry":{"type":"Point","coordinates":[120.46533785800337,13.413541527999863,0]},"properties":{"OID_":0,"Name":"Brgy. 6"}},
{"type":"Feature","geometry":{"type":"Point","coordinates":[120.45657525700337,13.41917173699986,0]},"properties":{"OID_":0,"Name":"Brgy. 1"}},
{"type":"Feature","geometry":{"type":"Point","coordinates":[120.46069743800328,13.417861594999842,0]},"properties":{"OID_":0,"Name":"Brgy. 2"}},
{"type":"Feature","geometry":{"type":"Point","coordinates":[120.46261293400332,13.416277602999834,0]},"properties":{"OID_":0,"Name":"Brgy. 3"}},
{"type":"Feature","geometry":{"type":"Point","coordinates":[120.46082716200338,13.416387677999841,0]},"properties":{"OID_":0,"Name":"Brgy. 4"}},
{"type":"Feature","geometry":{"type":"Point","coordinates":[120.46289446200328,13.414647959999835,0]},"properties":{"OID_":0,"Name":"Brgy. 5"}},
{"type":"Feature","geometry":{"type":"Point","coordinates":[120.43972082300348,13.444489890999835,0]},"properties":{"OID_":0,"Name":"Bulakan"}},
{"type":"Feature","geometry":{"type":"Point","coordinates":[120.56628797700256,13.504833488999944,0]},"properties":{"OID_":0,"Name":"Proper"}},
{"type":"Feature","geometry":{"type":"Point","coordinates":[120.46679155800327,13.47161961699985,0]},"properties":{"OID_":0,"Name":"Tiko-tiko"}}
]}
